[
  {"id":1,"name":"비에이블펜싱클럽","region":"서울","district":"강남구","weapons":["에페"],"address":"서울 강남구 역삼동","lat":37.500,"lng":127.036,"tel":"","url":"","note":""},
  {"id":2,"name":"신아람펜싱클럽","region":"서울","district":"서초구","weapons":["에페"],"address":"서울 서초구 고무래로 22 지하1층","lat":37.504,"lng":126.998,"tel":"02-599-8780","url":"http://www.shinfencing.com","note":"올림픽 메달리스트 신아람 대표"},
  {"id":3,"name":"JK펜싱클럽","region":"서울","district":"강남구","weapons":["에페"],"address":"서울 강남구 개포동","lat":37.484,"lng":127.059,"tel":"","url":"","note":""},
  {"id":4,"name":"드림펜싱클럽","region":"서울","district":"강남구","weapons":["에페"],"address":"서울 강남구 대치동","lat":37.493,"lng":127.062,"tel":"","url":"","note":""},
  {"id":5,"name":"베스트펜싱클럽","region":"서울","district":"광진구","weapons":["에페"],"address":"서울 광진구 자양동","lat":37.539,"lng":127.076,"tel":"","url":"","note":""},
  {"id":6,"name":"윤남진펜싱클럽 대치점","region":"서울","district":"강남구","weapons":["에페"],"address":"서울 강남구 역삼동","lat":37.500,"lng":127.041,"tel":"","url":"https://yoonfencing.modoo.at","note":""},
  {"id":7,"name":"윤남진펜싱클럽 서초점","region":"서울","district":"서초구","weapons":["에페"],"address":"서울 서초구 서초동","lat":37.484,"lng":127.013,"tel":"","url":"https://yoonfencing.modoo.at","note":"교대역 인근"},
  {"id":8,"name":"레이스펜싱클럽","region":"서울","district":"강남구","weapons":["에페"],"address":"서울 강남구 청담동","lat":37.524,"lng":127.047,"tel":"","url":"","note":""},
  {"id":9,"name":"하이브펜싱클럽 목동점","region":"서울","district":"양천구","weapons":["플뢰레"],"address":"서울 양천구 목동","lat":37.528,"lng":126.875,"tel":"","url":"","note":""},
  {"id":10,"name":"하이브펜싱클럽 강남점","region":"서울","district":"강남구","weapons":["플뢰레"],"address":"서울 강남구 논현동","lat":37.511,"lng":127.028,"tel":"","url":"","note":""},
  {"id":11,"name":"스킬펜싱클럽","region":"서울","district":"강남구","weapons":["플뢰레"],"address":"서울 강남구 역삼동 772 그랑프리엔 301호","lat":37.500,"lng":127.041,"tel":"02-546-8922","url":"","note":""},
  {"id":12,"name":"목동펜싱클럽","region":"서울","district":"양천구","weapons":["플뢰레"],"address":"서울 양천구 신정동","lat":37.524,"lng":126.877,"tel":"","url":"","note":""},
  {"id":13,"name":"신수펜싱아카데미","region":"서울","district":"마포구","weapons":["플뢰레"],"address":"서울 마포구 현석동 105-29","lat":37.543,"lng":126.943,"tel":"02-717-6812","url":"","note":""},
  {"id":14,"name":"압구정펜싱클럽","region":"서울","district":"강남구","weapons":["플뢰레"],"address":"서울 강남구 압구정동","lat":37.527,"lng":127.028,"tel":"","url":"","note":""},
  {"id":15,"name":"최병철펜싱클럽","region":"서울","district":"강남구","weapons":["플뢰레"],"address":"서울 강남구 자곡동 635","lat":37.462,"lng":127.083,"tel":"02-451-2223","url":"","note":""},
  {"id":16,"name":"잠실펜싱클럽","region":"서울","district":"송파구","weapons":["플뢰레"],"address":"서울 송파구 잠실동 10 잠실 제1수영장 2층","lat":37.512,"lng":127.076,"tel":"02-3431-7355","url":"","note":""},
  {"id":17,"name":"이글펜싱클럽 잠실점","region":"서울","district":"송파구","weapons":["플뢰레"],"address":"서울 송파구 방이동 67-2","lat":37.513,"lng":127.083,"tel":"02-1899-1327","url":"","note":""},
  {"id":18,"name":"이글펜싱클럽 올림픽점","region":"서울","district":"송파구","weapons":["플뢰레"],"address":"서울 송파구 방이동","lat":37.519,"lng":127.086,"tel":"","url":"","note":""},
  {"id":19,"name":"루이펜싱클럽","region":"서울","district":"강남구","weapons":["플뢰레"],"address":"서울 강남구 대치동","lat":37.491,"lng":127.064,"tel":"","url":"","note":""},
  {"id":20,"name":"에이펙스펜싱클럽","region":"서울","district":"강남구","weapons":["플뢰레"],"address":"서울 강남구 삼성동","lat":37.512,"lng":127.058,"tel":"","url":"","note":""},
  {"id":21,"name":"어썸코리아펜싱클럽","region":"서울","district":"강남구","weapons":["플뢰레"],"address":"서울 강남구 논현동","lat":37.512,"lng":127.023,"tel":"","url":"https://awesomefencing.com","note":""},
  {"id":22,"name":"엘리트펜싱클럽","region":"서울","district":"양천구","weapons":["플뢰레"],"address":"서울 양천구 신정동 902-15 B1","lat":37.527,"lng":126.876,"tel":"02-6082-1575","url":"","note":"구. 남현희펜싱아카데미"},
  {"id":23,"name":"스타펜싱아카데미","region":"서울","district":"강남구","weapons":["사브르"],"address":"서울 강남구 논현동","lat":37.511,"lng":127.030,"tel":"","url":"","note":""},
  {"id":24,"name":"구본길펜싱클럽","region":"서울","district":"강남구","weapons":["사브르"],"address":"서울 강남구 대치동 906-22","lat":37.494,"lng":127.061,"tel":"","url":"","note":"올림픽 금메달리스트 구본길 대표"},
  {"id":25,"name":"펜싱랩 Fencing Lab","region":"서울","district":"강남구","weapons":["사브르"],"address":"서울 강남구 역삼동","lat":37.499,"lng":127.038,"tel":"","url":"","note":""},
  {"id":26,"name":"평창동펜싱클럽","region":"서울","district":"종로구","weapons":["에페","플뢰레"],"address":"서울 종로구 평창동 310-1 지하1층","lat":37.622,"lng":126.966,"tel":"02-379-1928","url":"","note":""},
  {"id":27,"name":"서울펜싱클럽","region":"서울","district":"용산구","weapons":["에페","플뢰레"],"address":"서울 용산구 이촌동","lat":37.518,"lng":126.990,"tel":"010-7758-7048","url":"http://seoulfc.co.kr","note":""},
  {"id":28,"name":"은호펜싱클럽","region":"서울","district":"성동구","weapons":["에페","플뢰레"],"address":"서울 성동구 금호동3가 1662","lat":37.556,"lng":127.025,"tel":"02-2233-9785","url":"http://eunhofc.com","note":""},
  {"id":29,"name":"JJ펜싱클럽","region":"서울","district":"송파구","weapons":["플뢰레","사브르"],"address":"서울 송파구 삼전동 2-7 B1","lat":37.506,"lng":127.087,"tel":"","url":"https://loomi1002.cafe24.com","note":""},
  {"id":30,"name":"더블유펜싱클럽","region":"서울","district":"강남구","weapons":["플뢰레","사브르"],"address":"서울 강남구 대치동","lat":37.494,"lng":127.062,"tel":"","url":"","note":""},
  {"id":31,"name":"라피네킴스펜싱클럽","region":"서울","district":"강남구","weapons":["에페","사브르"],"address":"서울 강남구 청담동","lat":37.526,"lng":127.049,"tel":"","url":"","note":""},

  {"id":32,"name":"로얄펜싱클럽","region":"경기남부","district":"성남시","weapons":["에페"],"address":"경기 성남시 분당구","lat":37.385,"lng":127.122,"tel":"","url":"","note":""},
  {"id":33,"name":"수원펜싱클럽","region":"경기남부","district":"수원시","weapons":["에페"],"address":"경기 수원시 영통구","lat":37.263,"lng":127.042,"tel":"","url":"","note":""},
  {"id":34,"name":"조희제펜싱클럽","region":"경기남부","district":"하남시","weapons":["에페"],"address":"경기 하남시 미사동","lat":37.550,"lng":127.208,"tel":"","url":"","note":"구. 윤남진펜싱클럽 하남미사점"},
  {"id":35,"name":"광교펜싱클럽","region":"경기남부","district":"수원시","weapons":["에페"],"address":"경기 수원시 영통구 광교동","lat":37.280,"lng":127.041,"tel":"","url":"","note":""},
  {"id":36,"name":"센트럴펜싱클럽","region":"경기남부","district":"용인시","weapons":["에페"],"address":"경기 용인시 수지구","lat":37.322,"lng":127.096,"tel":"","url":"","note":""},
  {"id":37,"name":"안산KCY펜싱클럽","region":"경기남부","district":"안산시","weapons":["에페"],"address":"경기 안산시 단원구","lat":37.322,"lng":126.830,"tel":"","url":"","note":""},
  {"id":38,"name":"향남펜싱클럽","region":"경기남부","district":"화성시","weapons":["에페"],"address":"경기 화성시 향남읍","lat":37.161,"lng":126.989,"tel":"","url":"","note":""},
  {"id":39,"name":"올림픽펜싱아카데미","region":"경기남부","district":"성남시","weapons":["플뢰레"],"address":"경기 성남시 분당구 야탑동","lat":37.411,"lng":127.127,"tel":"","url":"","note":""},
  {"id":40,"name":"분당국제펜싱클럽","region":"경기남부","district":"성남시","weapons":["플뢰레"],"address":"경기 성남시 분당구 정자동","lat":37.361,"lng":127.115,"tel":"","url":"","note":""},
  {"id":41,"name":"분당국제펜싱클럽 서판교점","region":"경기남부","district":"성남시","weapons":["플뢰레"],"address":"경기 성남시 분당구 판교동","lat":37.392,"lng":127.110,"tel":"","url":"","note":""},
  {"id":42,"name":"NS펜싱클럽","region":"경기남부","district":"성남시","weapons":["플뢰레"],"address":"경기 성남시 중원구","lat":37.426,"lng":127.137,"tel":"","url":"","note":""},
  {"id":43,"name":"엔티언펜싱클럽 위례점","region":"경기남부","district":"하남시","weapons":["플뢰레"],"address":"경기 하남시 위례동","lat":37.477,"lng":127.143,"tel":"","url":"","note":""},
  {"id":44,"name":"투셰펜싱클럽","region":"경기남부","district":"수원시","weapons":["플뢰레"],"address":"경기 수원시 권선구","lat":37.254,"lng":127.003,"tel":"","url":"","note":""},
  {"id":45,"name":"엔시스펜싱클럽","region":"경기남부","district":"성남시","weapons":["플뢰레"],"address":"경기 성남시 수정구","lat":37.447,"lng":127.141,"tel":"","url":"","note":""},
  {"id":46,"name":"에이치펜싱클럽","region":"경기남부","district":"용인시","weapons":["플뢰레"],"address":"경기 용인시 기흥구","lat":37.278,"lng":127.115,"tel":"","url":"","note":""},
  {"id":47,"name":"사비오펜싱클럽","region":"경기남부","district":"수원시","weapons":["사브르"],"address":"경기 수원시 장안구","lat":37.299,"lng":126.980,"tel":"","url":"","note":""},
  {"id":48,"name":"윤지수펜싱클럽","region":"경기남부","district":"하남시","weapons":["사브르"],"address":"경기 하남시 위례동","lat":37.477,"lng":127.144,"tel":"","url":"https://www.yoonjisufencing.com","note":"올림픽 메달리스트 윤지수 대표"},

  {"id":49,"name":"부천트윈펜싱클럽","region":"경기서부/인천","district":"부천시","weapons":["에페"],"address":"경기 부천시 원미구","lat":37.503,"lng":126.766,"tel":"","url":"","note":""},
  {"id":50,"name":"펜싱아카데미 더원","region":"경기서부/인천","district":"인천","weapons":["에페"],"address":"인천 남동구","lat":37.449,"lng":126.731,"tel":"","url":"","note":""},
  {"id":51,"name":"송도펜싱클럽","region":"경기서부/인천","district":"인천","weapons":["플뢰레"],"address":"인천 연수구 송도동","lat":37.383,"lng":126.656,"tel":"","url":"","note":""},
  {"id":52,"name":"엔티언펜싱클럽 김포점","region":"경기서부/인천","district":"김포시","weapons":["플뢰레"],"address":"경기 김포시 장기동","lat":37.619,"lng":126.716,"tel":"","url":"","note":""},
  {"id":53,"name":"엔티언펜싱클럽 배곧점","region":"경기서부/인천","district":"시흥시","weapons":["플뢰레"],"address":"경기 시흥시 배곧동","lat":37.368,"lng":126.723,"tel":"","url":"","note":""},
  {"id":54,"name":"앱솔루트펜싱클럽","region":"경기서부/인천","district":"인천","weapons":["플뢰레"],"address":"인천 서구","lat":37.537,"lng":126.679,"tel":"","url":"","note":""},
  {"id":55,"name":"국제펜싱클럽","region":"경기서부/인천","district":"인천","weapons":["플뢰레"],"address":"인천 부평구","lat":37.508,"lng":126.724,"tel":"","url":"","note":""},
  {"id":56,"name":"청라펜싱클럽","region":"경기서부/인천","district":"인천","weapons":["사브르"],"address":"인천 서구 청라동","lat":37.536,"lng":126.643,"tel":"","url":"","note":""},
  {"id":57,"name":"VIP펜싱클럽","region":"경기서부/인천","district":"인천","weapons":["사브르"],"address":"인천 남동구","lat":37.448,"lng":126.726,"tel":"","url":"","note":""},
  {"id":58,"name":"펜싱아레나","region":"경기서부/인천","district":"인천","weapons":["에페","플뢰레"],"address":"인천 연수구","lat":37.410,"lng":126.678,"tel":"","url":"","note":""},

  {"id":59,"name":"고양펜싱클럽","region":"경기북부","district":"고양시","weapons":["에페"],"address":"경기 고양시 일산서구","lat":37.668,"lng":126.768,"tel":"","url":"","note":""},
  {"id":60,"name":"JS펜싱클럽","region":"경기북부","district":"의정부시","weapons":["에페"],"address":"경기 의정부시","lat":37.738,"lng":127.047,"tel":"","url":"","note":""},
  {"id":61,"name":"Fencing 290","region":"경기북부","district":"고양시","weapons":["사브르"],"address":"경기 고양시 덕양구","lat":37.656,"lng":126.830,"tel":"","url":"","note":""},
  {"id":62,"name":"위너펜싱클럽","region":"경기북부","district":"남양주시","weapons":[],"address":"경기 남양주시","lat":37.636,"lng":127.215,"tel":"","url":"","note":""},

  {"id":63,"name":"이글펜싱클럽 남양주점","region":"경기동부","district":"남양주시","weapons":["플뢰레"],"address":"경기 남양주시 별내동","lat":37.648,"lng":127.148,"tel":"","url":"","note":""},
  {"id":64,"name":"유상주아카데미","region":"경기동부","district":"구리시","weapons":["사브르"],"address":"경기 구리시","lat":37.595,"lng":127.131,"tel":"","url":"","note":""},

  {"id":65,"name":"원탑펜싱클럽","region":"강원","district":"춘천시","weapons":["사브르"],"address":"강원 춘천시","lat":37.880,"lng":127.730,"tel":"","url":"","note":""},

  {"id":66,"name":"퍼스트펜싱클럽","region":"충청/대전","district":"대전","weapons":["에페"],"address":"대전 서구","lat":36.351,"lng":127.383,"tel":"","url":"","note":""},
  {"id":67,"name":"케이펜싱클럽","region":"충청/대전","district":"대전","weapons":["사브르"],"address":"대전 유성구","lat":36.362,"lng":127.356,"tel":"","url":"","note":""},
  {"id":68,"name":"몬스터펜싱클럽","region":"충청/대전","district":"대전","weapons":["사브르"],"address":"대전 중구","lat":36.323,"lng":127.421,"tel":"","url":"","note":""},
  {"id":69,"name":"대전펜싱클럽","region":"충청/대전","district":"대전","weapons":["에페","플뢰레"],"address":"대전 동구","lat":36.349,"lng":127.437,"tel":"","url":"","note":""},
  {"id":70,"name":"윤남진펜싱클럽 천안점","region":"충청/대전","district":"천안시","weapons":["에페","사브르"],"address":"경기 천안시 서북구 불당동","lat":36.843,"lng":127.143,"tel":"","url":"https://yoonfencing.modoo.at","note":"천안점"},

  {"id":71,"name":"센텀펜싱클럽","region":"경상권/부산","district":"부산","weapons":["에페"],"address":"부산 해운대구 우동","lat":35.169,"lng":129.134,"tel":"","url":"","note":""},
  {"id":72,"name":"월드펜싱클럽","region":"경상권/부산","district":"부산","weapons":["에페"],"address":"부산 동래구","lat":35.200,"lng":129.088,"tel":"","url":"","note":""},
  {"id":73,"name":"부산펜싱클럽","region":"경상권/부산","district":"부산","weapons":["에페"],"address":"부산 사하구 다대로554번길 33","lat":35.064,"lng":128.963,"tel":"","url":"","note":""},
  {"id":74,"name":"진주펜싱코리아클럽","region":"경상권/부산","district":"진주시","weapons":["에페"],"address":"경남 진주시","lat":35.180,"lng":128.107,"tel":"","url":"","note":""},
  {"id":75,"name":"에스씨펜싱클럽","region":"경상권/부산","district":"부산","weapons":["에페"],"address":"부산 수영구","lat":35.158,"lng":129.113,"tel":"","url":"","note":""},
  {"id":76,"name":"마스터펜싱클럽","region":"경상권/부산","district":"부산","weapons":["에페"],"address":"부산 연제구","lat":35.177,"lng":129.075,"tel":"","url":"","note":""},
  {"id":77,"name":"예코치펜싱클럽","region":"경상권/부산","district":"부산","weapons":["에페"],"address":"부산 남구","lat":35.134,"lng":129.083,"tel":"","url":"","note":""},
  {"id":78,"name":"윈펜싱클럽","region":"경상권/부산","district":"경남","weapons":["에페"],"address":"경남 창원시","lat":35.228,"lng":128.681,"tel":"","url":"","note":""},
  {"id":79,"name":"노블레스펜싱클럽","region":"경상권/부산","district":"부산","weapons":["플뢰레"],"address":"부산 해운대구","lat":35.163,"lng":129.163,"tel":"","url":"","note":""},
  {"id":80,"name":"아레스펜싱클럽","region":"경상권/부산","district":"부산","weapons":["사브르"],"address":"부산 동래구","lat":35.203,"lng":129.082,"tel":"","url":"","note":""},
  {"id":81,"name":"로러스펜싱클럽 부산점","region":"경상권/부산","district":"부산","weapons":["사브르"],"address":"부산 북구","lat":35.197,"lng":128.995,"tel":"","url":"","note":""},
  {"id":82,"name":"경남펜싱아카데미","region":"경상권/부산","district":"경남","weapons":["사브르"],"address":"경남 창원시 마산합포구","lat":35.184,"lng":128.567,"tel":"","url":"","note":""},
  {"id":83,"name":"프라임펜싱클럽","region":"경상권/부산","district":"대구","weapons":["사브르"],"address":"대구 수성구","lat":35.848,"lng":128.631,"tel":"","url":"","note":""},
  {"id":84,"name":"제이콩펜싱클럽","region":"경상권/부산","district":"부산","weapons":["에페","플뢰레"],"address":"부산 동래구","lat":35.202,"lng":129.090,"tel":"","url":"","note":""},
  {"id":85,"name":"비엔케이펜싱클럽","region":"경상권/부산","district":"부산","weapons":["에페","사브르"],"address":"부산 연제구","lat":35.179,"lng":129.073,"tel":"","url":"","note":""},

  {"id":86,"name":"위즈펜싱클럽","region":"전라권","district":"광주","weapons":["에페"],"address":"광주 북구","lat":35.167,"lng":126.912,"tel":"","url":"","note":""},
  {"id":87,"name":"광주국대펜싱","region":"전라권","district":"광주","weapons":["에페"],"address":"광주 서구","lat":35.152,"lng":126.889,"tel":"","url":"","note":""},
  {"id":88,"name":"에코펜싱클럽","region":"전라권","district":"광주","weapons":["플뢰레"],"address":"광주 광산구","lat":35.219,"lng":126.842,"tel":"","url":"","note":""},
  {"id":89,"name":"포인트펜싱클럽","region":"전라권","district":"전주시","weapons":["플뢰레"],"address":"전북 전주시 완산구","lat":35.817,"lng":127.113,"tel":"","url":"","note":""},
  {"id":90,"name":"장현경펜싱클럽","region":"전라권","district":"광주","weapons":["에페","사브르"],"address":"광주 남구","lat":35.131,"lng":126.903,"tel":"","url":"","note":""},

  {"id":91,"name":"제주TOP펜싱클럽","region":"제주","district":"제주시","weapons":["플뢰레"],"address":"제주 제주시 노형동","lat":33.480,"lng":126.488,"tel":"","url":"","note":""},
  {"id":92,"name":"서미정펜싱클럽","region":"제주","district":"제주시","weapons":["플뢰레"],"address":"제주 제주시 연동","lat":33.493,"lng":126.527,"tel":"","url":"","note":""},
  {"id":93,"name":"코리아펜싱클럽","region":"제주","district":"서귀포시","weapons":["에페","사브르"],"address":"제주 서귀포시","lat":33.253,"lng":126.560,"tel":"","url":"","note":""},
  {"id":94,"name":"알레펜싱클럽","region":"제주","district":"제주시","weapons":["에페","플뢰레","사브르"],"address":"제주 제주시 애월읍","lat":33.461,"lng":126.336,"tel":"","url":"","note":"3종목 운영"}
]
